City,Country,Latitude,Longitude,Max Temp,Humidity,Cloudiness,Wind Speed,Date
Barrow,US,71.29,-156.79,3.0,86,90,6.2,07/15/20
Coyhaique,CL,-45.58,-72.07,-1.0,92,75,1.5,07/15/20
Mataura,NZ,-46.19,168.86,3.89,83,4,1.34,07/15/20
São Filipe,CV,14.9,-24.5,24.57,86,35,4.78,07/15/20
Hobart,AU,-42.88,147.33,11.11,66,75,0.5,07/15/20
Buraidah,SA,26.33,43.98,29.0,32,0,3.1,07/15/20
Ambon City,ID,-3.7,128.18,28.89,88,75,1.5,07/15/20
La Santisima Trinidad,BO,-14.83,-64.9,20.03,85,0,2.2,07/15/20
Bluff,NZ,-46.6,168.33,3.89,83,0,1.34,07/15/20
Kasama,ZM,-10.21,31.18,10.96,69,2,1.14,07/15/20
Itarema,BR,-2.92,-39.92,24.32,81,0,3.8,07/15/20
Saint George,US,37.1,-113.58,33.0,15,1,2.6,07/15/20
Provideniya,RU,64.38,-173.3,9.0,93,90,4.0,07/15/20
Gurupá,BR,-1.41,-51.64,22.05,97,6,1.25,07/15/20
Jamestown,US,42.1,-79.24,16.11,87,1,1.44,07/15/20
Urdoma,RU,61.75,48.54,16.16,96,81,4.4,07/15/20
Half Moon Bay,US,37.46,-122.43,17.0,72,1,2.1,07/15/20
Port Alfred,ZA,-33.59,26.89,10.58,66,90,6.38,07/15/20
Dingle,PH,11.0,122.67,31.56,65,31,3.31,07/15/20
Bredasdorp,ZA,-34.53,20.04,6.0,81,4,1.5,07/15/20
Samarai,PG,-10.62,150.67,24.51,86,100,1.95,07/15/20
Ushuaia,AR,-54.8,-68.3,-1.0,92,90,2.1,07/15/20
Bambous Virieux,MU,-20.34,57.76,24.44,83,40,6.7,07/15/20
Busselton,AU,-33.65,115.33,17.22,57,85,7.4,07/15/20
Caravelas,BR,-17.71,-39.25,20.65,95,6,2.05,07/15/20
Puerto Ayora,EC,-0.74,-90.35,19.44,93,92,2.7,07/15/20
Wilmington,US,34.23,-77.94,25.0,94,1,1.42,07/15/20
Hofn,IS,64.25,-15.21,10.51,90,99,3.19,07/15/20
Hithadhoo,MV,-0.6,73.08,28.77,70,57,1.72,07/15/20
San Patricio,MX,19.22,-104.7,27.03,86,37,3.06,07/15/20
Butaritari,KI,3.07,172.79,26.98,73,99,3.69,07/15/20
Villazón,BO,-22.09,-65.59,2.3,58,0,1.81,07/15/20
Tot'ma,RU,59.97,42.76,15.4,97,100,4.41,07/15/20
North Bend,US,43.41,-124.22,16.11,87,1,9.3,07/15/20
Albany,US,42.6,-73.97,20.0,78,62,1.14,07/15/20
Aktash,RU,50.3,87.73,13.7,65,71,2.05,07/15/20
Tongren,CN,27.72,109.19,32.71,62,99,2.61,07/15/20
Rikitea,PF,-23.12,-134.97,22.55,86,100,3.3,07/15/20
Cape Town,ZA,-33.93,18.42,7.0,81,1,3.6,07/15/20
Hasaki,JP,35.73,140.83,22.22,88,75,4.1,07/15/20
Grand-Lahou,CI,5.14,-5.02,23.71,79,79,4.93,07/15/20
Puerto Ayacucho,VE,5.66,-67.62,23.03,92,84,1.14,07/15/20
Pevek,RU,69.7,170.31,6.89,72,28,3.15,07/15/20
Coahuayana Viejo,MX,18.73,-103.68,25.89,89,13,0.65,07/15/20
Hauterive,FR,46.09,3.45,18.0,63,100,1.0,07/15/20
Rome,US,43.21,-75.46,18.0,88,40,1.5,07/15/20
Cap Malheureux,MU,-19.98,57.61,24.44,73,31,4.02,07/15/20
Igarka,RU,67.47,86.58,11.98,67,100,5.73,07/15/20
Trelew,AR,-43.25,-65.31,2.01,78,24,2.79,07/15/20
Punta Arenas,CL,-53.15,-70.92,0.0,92,87,2.6,07/15/20
Arica,CL,-18.48,-70.3,14.0,82,90,2.6,07/15/20
Warri,NG,5.52,5.75,23.46,93,100,1.92,07/15/20
Havre-St-Pierre,CA,50.23,-63.6,11.0,93,1,1.5,07/15/20
Hermanus,ZA,-34.42,19.23,5.0,89,7,0.89,07/15/20
Mar del Plata,AR,-38.0,-57.56,4.44,74,0,2.6,07/15/20
Esperance,AU,-33.87,121.9,15.0,67,0,5.7,07/15/20
Norman Wells,CA,65.28,-126.83,21.0,49,75,2.6,07/15/20
Kapaa,US,22.08,-159.32,27.0,78,40,5.7,07/15/20
Yellowknife,CA,62.46,-114.35,13.0,93,90,6.7,07/15/20
Port Elizabeth,ZA,-33.92,25.57,8.0,75,57,4.1,07/15/20
Beşikdüzü,TR,41.05,39.23,23.0,73,75,2.1,07/15/20
Georgiyevka,KZ,43.04,74.71,28.0,32,0,2.0,07/15/20
Havøysund,NO,71.0,24.66,11.0,76,48,3.6,07/15/20
East London,ZA,-33.02,27.91,11.0,57,50,3.6,07/15/20
Hilo,US,19.73,-155.09,26.0,69,90,2.6,07/15/20
Pyapon,MM,16.28,95.68,30.49,66,55,2.55,07/15/20
Sitka,US,57.05,-135.33,13.0,82,90,6.2,07/15/20
Prachuap Khiri Khan,TH,11.82,99.78,30.41,68,100,1.46,07/15/20
Leningradskiy,RU,69.38,178.42,6.22,81,93,7.12,07/15/20
Kokopo,PG,-4.35,152.26,28.39,66,95,1.31,07/15/20
Turukhansk,RU,65.82,87.98,11.2,73,99,5.86,07/15/20
Ahipara,NZ,-35.17,173.17,16.21,92,100,6.56,07/15/20
Port Blair,IN,11.67,92.75,29.39,74,62,5.57,07/15/20
Oranjemund,NA,-28.55,16.43,10.65,51,0,3.14,07/15/20
Saint-Philippe,RE,-21.36,55.77,23.0,64,21,3.1,07/15/20
Sinnamary,GF,5.38,-52.95,24.99,85,80,2.96,07/15/20
Poum,NC,-20.23,164.02,21.89,88,38,7.24,07/15/20
Zhigansk,RU,66.77,123.37,23.24,40,53,3.84,07/15/20
Carnarvon,AU,-24.87,113.63,24.0,50,0,4.1,07/15/20
Magadan,RU,59.57,150.8,14.93,78,54,2.77,07/15/20
Arlit,NE,18.74,7.39,28.51,44,16,2.84,07/15/20
Sydney,AU,-33.87,151.21,15.0,76,75,11.8,07/15/20
Hannibal,US,39.71,-91.36,26.0,54,1,2.6,07/15/20
Arrondissement de Carpentras,FR,44.08,5.17,20.0,55,72,3.1,07/15/20
Beringovskiy,RU,63.05,179.32,11.56,84,75,2.55,07/15/20
Khatanga,RU,71.97,102.5,15.43,77,100,4.82,07/15/20
Kaitangata,NZ,-46.28,169.85,7.22,79,26,2.24,07/15/20
Roberval,CA,48.52,-72.23,15.0,67,5,1.0,07/15/20
Rock Sound,BS,24.9,-76.2,28.69,76,94,3.64,07/15/20
Pergamino,AR,-33.89,-60.57,6.67,52,0,0.89,07/15/20
Lebanon,US,36.21,-86.29,23.33,83,1,2.24,07/15/20
Castro,BR,-24.79,-50.01,11.75,90,24,3.42,07/15/20
Agustin Codazzi,CO,10.03,-73.24,23.29,65,95,1.78,07/15/20
Ilulissat,GL,69.22,-51.1,4.0,86,15,0.99,07/15/20
Upernavik,GL,72.79,-56.15,5.85,82,99,3.87,07/15/20
Celestún,MX,20.87,-90.4,28.07,71,5,6.26,07/15/20
Narsaq,GL,60.92,-46.05,7.0,87,100,2.6,07/15/20
Xichang,CN,27.9,102.26,26.85,61,89,1.71,07/15/20
Vardø,NO,70.37,31.11,9.0,87,84,4.1,07/15/20
Yar-Sale,RU,66.83,70.83,12.27,88,100,4.17,07/15/20
Tangshan,CN,39.63,118.18,36.39,26,16,2.14,07/15/20
Faanui,PF,-16.48,-151.75,25.3,85,3,7.08,07/15/20
Tessalit,ML,20.2,1.01,30.32,42,81,4.01,07/15/20
Nanortalik,GL,60.14,-45.24,4.96,94,100,1.54,07/15/20
Severo-Kuril'sk,RU,50.68,156.12,12.9,82,88,4.66,07/15/20
Sola,VU,-13.88,167.55,26.3,80,97,5.66,07/15/20
Guerrero Negro,MX,27.98,-114.06,20.1,85,1,6.65,07/15/20
Tasiilaq,GL,65.61,-37.64,5.0,86,28,1.5,07/15/20
Thompson,CA,55.74,-97.86,16.0,87,90,3.6,07/15/20
Leh,IN,34.17,77.58,17.4,29,1,2.61,07/15/20
Saskylakh,RU,71.92,114.08,25.78,49,45,5.16,07/15/20
Bethel,US,41.37,-73.41,19.44,93,1,2.29,07/15/20
Port Keats,AU,-14.25,129.55,30.68,27,37,1.72,07/15/20
Dikson,RU,73.51,80.55,4.19,93,76,6.4,07/15/20
New Norfolk,AU,-42.78,147.06,10.56,84,100,0.95,07/15/20
Rockingham,US,42.97,-71.1,18.33,93,97,1.38,07/15/20
Igrim,RU,63.19,64.42,25.19,65,30,2.68,07/15/20
Sīwah,EG,29.2,25.52,23.73,62,0,3.34,07/15/20
Araouane,ML,18.9,-3.53,30.36,47,92,5.09,07/15/20
Ponta do Sol,PT,32.67,-17.1,22.78,45,0,2.53,07/15/20
Guiglo,CI,6.55,-7.5,19.99,97,100,1.71,07/15/20
Petropavlovsk-Kamchatskiy,RU,53.05,158.65,17.0,77,20,7.0,07/15/20
Les Cayes,HT,18.2,-73.75,26.47,82,21,0.83,07/15/20
Avarua,CK,-21.21,-159.78,21.0,64,46,2.1,07/15/20
Gizo Government Station,SB,-8.1,156.84,28.48,71,26,2.03,07/15/20
Qaanaaq,GL,77.48,-69.36,4.52,84,100,4.51,07/15/20
Paamiut,GL,61.99,-49.67,4.91,92,44,4.69,07/15/20
Fairbanks,US,64.84,-147.72,21.0,49,1,3.6,07/15/20
Rantepao,ID,-2.97,119.9,23.58,87,98,1.59,07/15/20
Turan,VN,16.07,108.22,34.0,59,20,3.1,07/15/20
Touros,BR,-5.2,-35.46,23.0,94,20,1.0,07/15/20
Souillac,MU,-20.52,57.52,23.0,83,40,6.7,07/15/20
Bengkulu,ID,-3.8,102.27,27.93,64,98,0.58,07/15/20
Nichinan,JP,31.6,131.37,24.0,73,75,7.2,07/15/20
Saint Anthony,US,45.02,-93.22,18.0,82,1,1.62,07/15/20
Mil'kovo,RU,54.72,158.62,24.53,52,50,2.14,07/15/20
Oga,IT,46.46,10.35,12.78,100,78,1.0,07/15/20
Cherskiy,RU,68.75,161.3,7.76,64,0,8.75,07/15/20
Hervey Bay,AU,-25.3,152.85,20.56,41,0,3.58,07/15/20
Sechura,PE,-5.56,-80.82,17.93,84,83,4.72,07/15/20
Miles City,US,46.41,-105.84,21.0,26,1,1.5,07/15/20
Atuona,PF,-9.8,-139.03,26.49,76,10,8.96,07/15/20
Mglin,RU,53.06,32.85,10.68,94,100,10.31,07/15/20
Sakaiminato,JP,35.55,133.23,23.0,78,75,4.1,07/15/20
Vaini,TO,-21.2,-175.2,23.0,78,75,4.6,07/15/20
Leirvik,NO,59.78,5.5,13.33,94,0,0.96,07/15/20
Aripuanã,BR,-9.17,-60.63,21.79,64,0,0.41,07/15/20
Ketovo,RU,55.35,65.33,28.75,56,21,2.85,07/15/20
Airai,TL,-8.93,125.41,20.91,68,16,2.21,07/15/20
Gigmoto,PH,13.78,124.39,31.16,62,17,3.0,07/15/20
Zacualtipán,MX,20.65,-98.6,15.83,100,74,0.79,07/15/20
Flinders,AU,-34.58,150.86,15.0,72,99,3.13,07/15/20
Tamworth,GB,52.63,-1.7,13.0,82,75,1.5,07/15/20
Stornoway,GB,58.21,-6.39,12.22,100,100,1.5,07/15/20
Yangi Marg`ilon,UZ,40.43,71.72,30.0,30,0,2.1,07/15/20
Te Anau,NZ,-45.42,167.72,4.62,83,21,0.56,07/15/20
Tiznit Province,MA,29.58,-9.5,22.74,53,0,0.87,07/15/20
Matara,LK,5.95,80.54,28.76,77,90,5.34,07/15/20
Nishihara,JP,26.18,127.76,31.0,79,75,7.2,07/15/20
Geraldton,AU,-28.77,114.6,20.0,60,40,5.7,07/15/20
Haines Junction,CA,60.75,-137.51,9.83,83,100,0.13,07/15/20
Saint Paul Harbor,US,57.79,-152.41,23.0,35,1,4.6,07/15/20
Bilma,NE,18.69,12.92,26.89,53,3,5.89,07/15/20
Navahrudak,BY,53.6,25.83,12.34,93,99,3.0,07/15/20
Sorong,ID,-0.88,131.25,28.21,73,48,3.57,07/15/20
Santa Inês,BR,-3.67,-45.38,21.41,96,0,1.34,07/15/20
Mānsa,IN,29.98,75.38,39.35,30,1,2.3,07/15/20
Karatau,KZ,43.17,70.47,29.05,25,0,7.42,07/15/20
Tacuatí,PY,-23.45,-56.58,14.52,63,0,2.08,07/15/20
Moranbah,AU,-22.0,148.05,20.67,24,0,3.56,07/15/20
Chokurdakh,RU,70.63,147.92,5.98,64,99,6.11,07/15/20
Margate,GB,51.38,1.39,15.56,76,91,1.34,07/15/20
Oranzherei,RU,45.85,47.57,23.0,83,40,3.0,07/15/20
Scarborough,GB,54.28,-0.4,12.22,88,100,0.89,07/15/20
Lompoc,US,34.64,-120.46,16.0,77,3,4.1,07/15/20
Hirado,JP,33.36,129.55,23.0,83,75,2.1,07/15/20
Ljungby,SE,56.83,13.94,14.0,100,100,3.1,07/15/20
Singapore,SG,1.29,103.85,30.0,74,75,2.6,07/15/20
San Cristobal,VE,7.77,-72.22,17.99,82,33,1.21,07/15/20
Prince Rupert,CA,54.32,-130.32,13.0,100,90,3.1,07/15/20
Tadine,NC,-21.55,167.88,23.75,74,83,1.74,07/15/20
Nabire,ID,-3.37,135.48,28.53,73,40,1.44,07/15/20
Zeya,RU,53.75,127.27,34.72,32,88,1.77,07/15/20
Rio Branco,BR,-9.97,-67.81,22.0,94,0,0.82,07/15/20
Los Llanos de Aridane,ES,28.66,-17.92,21.0,77,2,5.1,07/15/20
Lagoa,PT,39.05,-27.98,20.17,82,0,2.41,07/15/20
Keshabpur,BD,22.92,89.21,31.91,70,95,5.6,07/15/20
Mareeba,AU,-17.0,145.43,25.0,47,68,4.6,07/15/20
Mirny,RU,62.54,113.96,28.0,32,87,5.0,07/15/20
Ulaangom,MN,49.98,92.07,18.84,65,100,2.55,07/15/20
Hamilton,US,39.18,-84.53,24.0,88,1,1.89,07/15/20
Solnechnyy,RU,50.72,136.63,28.01,52,30,2.91,07/15/20
Khor,RU,47.89,134.95,25.87,74,53,2.14,07/15/20
Vestmannaeyjar,IS,63.44,-20.27,11.43,90,100,2.78,07/15/20
Ulladulla,AU,-35.35,150.47,14.0,62,75,7.7,07/15/20
Boyolangu,ID,-8.12,111.89,28.0,71,41,3.63,07/15/20
Asău,RO,46.43,26.4,14.44,74,57,0.74,07/15/20
Champerico,GT,14.3,-91.92,25.55,86,89,0.48,07/15/20
George Town,MY,5.41,100.34,31.0,70,20,2.6,07/15/20
Clyde River,CA,70.47,-68.59,11.0,76,90,2.1,07/15/20
Bosaso,SO,11.28,49.18,34.0,41,93,9.8,07/15/20
Saint Simons,US,31.14,-81.39,27.0,83,1,3.1,07/15/20
Conde,BR,-7.26,-34.91,20.88,90,5,3.67,07/15/20
Ancud,CL,-41.87,-73.82,6.67,100,90,3.6,07/15/20
Hastings,GB,50.86,0.57,13.33,82,76,0.45,07/15/20
Maţāy,EG,28.42,30.78,25.37,67,0,5.93,07/15/20
Bahía Blanca,AR,-38.72,-62.27,3.99,70,33,2.28,07/15/20
Chui,UY,-33.7,-53.46,2.05,83,0,2.71,07/15/20
The Valley,AI,18.22,-63.06,28.0,74,20,4.6,07/15/20
Pisco,PE,-13.7,-76.22,16.0,87,75,0.5,07/15/20
Birao,CF,10.28,22.79,21.81,93,52,1.44,07/15/20
Talnakh,RU,69.49,88.4,10.0,93,90,5.0,07/15/20
Opochka,RU,56.71,28.66,11.99,75,100,2.98,07/15/20
Husavik,IS,66.04,-17.34,10.0,93,90,1.5,07/15/20
Fortuna,US,40.6,-124.16,13.33,87,1,1.5,07/15/20
San Vicente,AR,-26.62,-54.13,4.16,94,0,1.64,07/15/20
Mahébourg,MU,-20.41,57.7,23.0,83,40,6.7,07/15/20
Cockburn Town,TC,21.46,-71.14,27.53,83,6,8.15,07/15/20
Mehamn,NO,71.04,27.85,8.0,81,40,2.6,07/15/20
Caluquembe,AO,-13.78,14.68,8.86,47,0,3.43,07/15/20
Darnah,LY,32.77,22.64,24.84,66,0,6.41,07/15/20
Cadillac,US,44.25,-85.4,22.0,60,1,2.6,07/15/20
Shatura,RU,55.57,39.54,16.58,90,98,4.48,07/15/20
Tuktoyaktuk,CA,69.45,-133.04,12.0,76,90,5.1,07/15/20
Fuyu,CN,45.18,124.82,33.56,35,4,1.3,07/15/20
Vicuña,CL,-30.03,-70.71,10.0,51,0,1.54,07/15/20
Temascalcingo,MX,19.92,-100.0,18.33,89,100,1.79,07/15/20
Bestöbe,KZ,52.5,73.1,26.11,46,0,4.73,07/15/20
Ketchikan,US,55.34,-131.65,14.0,93,90,5.1,07/15/20
Neijiang,CN,29.58,105.06,29.44,79,93,1.9,07/15/20
Kavaratti,IN,10.57,72.64,28.0,83,90,6.2,07/15/20
Tiksi,RU,71.69,128.87,5.51,73,0,5.04,07/15/20
Sharjah city,AE,25.36,55.4,35.0,59,0,2.6,07/15/20
Saint-Joseph,RE,-21.37,55.62,22.0,64,7,3.1,07/15/20
Caucayá,CO,-0.19,-74.78,21.1,98,58,0.85,07/15/20
Mastic Beach,US,40.77,-72.85,21.11,77,1,3.93,07/15/20
Plettenberg Bay,ZA,-34.05,23.37,7.79,61,0,3.49,07/15/20
Venado Tuerto,AR,-33.75,-61.97,3.89,70,0,1.79,07/15/20
Lavrentiya,RU,65.58,-171.0,6.35,94,100,2.55,07/15/20
Klaksvík,FO,62.23,-6.59,10.0,93,88,1.5,07/15/20
Carnot,CF,4.94,15.87,19.52,95,100,2.31,07/15/20
Villarrica,PY,-25.75,-56.43,7.87,85,1,2.27,07/15/20
Surgut,RU,61.25,73.42,20.0,72,40,4.0,07/15/20
Cidreira,BR,-30.18,-50.21,6.24,74,0,4.13,07/15/20
Lac du Bonnet,CA,50.25,-96.06,17.78,99,69,2.24,07/15/20
Shelopugino,RU,51.65,117.56,30.77,35,21,4.17,07/15/20
Longyearbyen,SJ,78.22,15.64,7.0,75,75,3.1,07/15/20
Apartadó,CO,7.88,-76.63,23.81,86,37,0.75,07/15/20
Portsmouth,GB,50.8,-1.09,13.89,83,97,2.76,07/15/20
Cabo San Lucas,MX,22.89,-109.91,32.22,50,3,2.68,07/15/20
Kimbe,PG,-5.55,150.14,28.65,77,54,1.28,07/15/20
Lafia,NG,8.48,8.52,22.32,97,100,0.59,07/15/20
Laguna,US,38.42,-121.42,22.0,56,1,3.1,07/15/20
Alexandria,EG,31.22,29.96,25.26,76,38,3.42,07/15/20
Parfen'yevo,RU,58.48,43.41,21.46,88,87,4.02,07/15/20
Lensk,RU,60.73,114.93,33.44,31,36,1.22,07/15/20
Tuatapere,NZ,-46.13,167.68,3.89,83,1,1.34,07/15/20
Manokwari,ID,-0.87,134.08,29.0,68,6,2.91,07/15/20
Petrila,RO,45.45,23.42,14.0,87,65,1.32,07/15/20
Havelock,US,34.88,-76.9,28.89,83,90,1.5,07/15/20
Staryy Nadym,RU,65.61,72.68,12.27,94,100,5.97,07/15/20
Opuwo,NA,-18.06,13.84,10.68,36,0,7.58,07/15/20
Iquique,CL,-20.22,-70.14,12.0,87,0,1.5,07/15/20
Rosarito,MX,32.33,-117.03,19.44,82,1,1.5,07/15/20
Safaga,EG,26.73,33.94,30.1,40,0,4.77,07/15/20
Mgandu,TZ,-5.95,34.13,15.11,79,96,4.78,07/15/20
Faya,SA,18.39,42.45,23.0,19,2,5.16,07/15/20
Mīnāb,IR,27.15,57.08,33.0,75,75,3.1,07/15/20
King City,US,36.21,-121.13,15.56,71,0,0.89,07/15/20
Raudeberg,NO,61.99,5.14,13.0,93,40,0.5,07/15/20
Pacific Grove,US,36.62,-121.92,16.0,77,1,3.6,07/15/20
Kuching,MY,1.55,110.33,30.0,74,20,2.6,07/15/20
Abhā,SA,18.22,42.51,23.0,19,8,6.68,07/15/20
Marabu,MY,4.41,114.01,31.0,74,40,2.1,07/15/20
Darhan,MN,49.49,105.92,28.5,47,0,4.89,07/15/20
Westport,US,41.14,-73.36,22.0,78,1,1.5,07/15/20
Ozernovskiy,RU,51.5,156.52,11.77,89,98,2.57,07/15/20
Khandyga,RU,62.67,135.6,26.25,35,0,5.09,07/15/20
Sena Madureira,BR,-9.07,-68.66,22.39,88,5,0.5,07/15/20
Cayenne,GF,4.93,-52.33,24.0,100,34,2.89,07/15/20
Muros,ES,42.78,-9.06,18.33,76,55,2.24,07/15/20
Dubbo,AU,-32.25,148.62,15.0,54,75,3.6,07/15/20
Qaqortoq,GL,60.72,-46.03,7.0,87,100,2.6,07/15/20
Kloulklubed,PW,7.04,134.26,30.0,74,75,3.1,07/15/20
Cururupu,BR,-1.83,-44.87,22.83,93,16,1.13,07/15/20
Nizhneangarsk,RU,55.78,109.55,20.53,53,45,2.08,07/15/20
Port Macquarie,AU,-31.43,152.92,17.22,51,75,9.3,07/15/20
Alice Springs,AU,-23.7,133.88,17.0,23,4,2.6,07/15/20
Cherepovets,RU,59.13,37.9,14.0,100,90,3.0,07/15/20
Bukama,CD,-9.2,25.85,17.54,42,5,1.76,07/15/20
San Jose,US,37.34,-121.89,18.89,72,20,3.6,07/15/20
Fort Nelson,CA,58.81,-122.7,20.0,64,75,1.5,07/15/20
Lebu,CL,-37.62,-73.65,10.14,79,0,2.12,07/15/20
Sungai Besar,MY,3.67,100.99,30.0,74,40,2.1,07/15/20
Funadhoo,MV,6.15,73.27,28.76,77,100,5.19,07/15/20
Port Lincoln,AU,-34.73,135.87,16.09,53,21,6.47,07/15/20
Torbay,CA,47.67,-52.73,10.56,100,90,6.7,07/15/20
Mozarlândia,BR,-14.74,-50.57,20.89,38,0,2.12,07/15/20
Lázaro Cárdenas,MX,17.96,-102.2,26.66,85,24,0.89,07/15/20
Boende,CD,-0.22,20.87,22.23,92,99,0.23,07/15/20
Dauriya,RU,49.93,116.87,30.82,40,81,5.2,07/15/20
San Quintín,MX,30.48,-115.95,19.73,83,0,5.95,07/15/20
Camaná,PE,-16.62,-72.71,15.9,76,4,2.5,07/15/20
Bull Savanna,JM,17.89,-77.59,25.22,87,18,3.43,07/15/20
Nouakchott,MR,18.09,-15.98,22.0,88,40,6.7,07/15/20
La Rioja,ES,42.25,-2.5,12.0,76,20,4.6,07/15/20
Lishui,CN,28.46,119.91,34.96,54,63,1.36,07/15/20
Kapoeta,SS,4.77,33.59,23.89,75,94,0.46,07/15/20
Cumanayagua,CU,22.15,-80.2,26.0,94,66,2.1,07/15/20
Saldanha,ZA,-33.01,17.94,4.0,86,0,1.0,07/15/20
Taoudenni,ML,22.68,-3.98,32.79,25,0,3.43,07/15/20
North Myrtle Beach,US,33.82,-78.68,28.0,83,1,1.5,07/15/20
Nizwá,OM,22.93,57.53,35.83,30,0,1.57,07/15/20
Bathsheba,BB,13.22,-59.52,27.0,78,20,5.1,07/15/20
Penzance,GB,50.12,-5.54,15.0,93,100,4.1,07/15/20
Itaituba,BR,-4.28,-55.98,23.36,70,17,0.41,07/15/20
Bintulu,MY,3.17,113.03,30.0,79,40,2.1,07/15/20
Mandurah,AU,-32.55,115.7,16.11,80,97,4.47,07/15/20
Hailin,CN,44.58,129.42,30.33,45,9,2.09,07/15/20
Tirumullaivāsal,IN,11.23,79.83,32.07,57,100,4.41,07/15/20
Moskovskiy,RU,55.6,37.35,18.33,93,75,5.0,07/15/20
Codrington,AU,-38.27,141.97,12.8,69,34,2.08,07/15/20
Evanston,US,42.04,-87.69,25.56,65,90,3.6,07/15/20
Sinjār,IQ,36.32,41.88,35.35,14,0,1.71,07/15/20
Saint-Pierre,RE,-21.34,55.48,22.0,64,0,3.1,07/15/20
Arraial do Cabo,BR,-22.97,-42.03,20.18,78,95,5.75,07/15/20
Ostrovnoy,RU,68.05,39.51,9.5,75,100,3.44,07/15/20
Ratnagiri,IN,16.98,73.3,24.94,92,100,5.17,07/15/20
Naze,JP,28.37,129.48,28.0,94,75,3.1,07/15/20
Medgidia,RO,44.25,28.28,17.22,67,89,3.6,07/15/20
Mount Gambier,AU,-37.83,140.77,13.0,71,59,2.6,07/15/20
Pokosnoye,RU,55.53,101.05,19.93,73,100,5.3,07/15/20
Nakamura,JP,32.98,132.93,26.45,63,100,2.96,07/15/20
Sawākin,SD,19.11,37.33,33.61,32,24,1.01,07/15/20
Virginia Beach,US,36.85,-75.98,26.0,83,1,1.5,07/15/20
Tonstad,NO,58.66,6.72,11.67,96,12,0.99,07/15/20
Sioux Lookout,CA,50.1,-91.92,19.0,63,40,3.1,07/15/20
Grand Gaube,MU,-20.01,57.66,24.44,73,31,4.02,07/15/20
Saint-Cyr-sur-Loire,FR,47.4,0.67,15.0,87,90,3.1,07/15/20
Gualaco,HN,15.05,-86.05,19.3,91,2,0.56,07/15/20
Gualeguaychú,AR,-33.01,-58.52,3.89,63,0,1.79,07/15/20
Sørland,NO,67.67,12.69,15.0,67,0,0.5,07/15/20
Kiryat Gat,IL,31.61,34.76,23.33,68,0,1.26,07/15/20
Mogadishu,SO,2.04,45.34,26.0,74,75,5.7,07/15/20
Ende,ID,-8.84,121.66,28.36,58,53,3.21,07/15/20
Baykit,RU,61.67,96.37,14.67,54,98,6.08,07/15/20
Kondinskoye,RU,59.65,67.41,28.62,60,60,5.32,07/15/20
Yārāda,IN,17.65,83.27,27.0,88,90,2.6,07/15/20
Ponta Delgada,PT,37.73,-25.67,19.0,82,40,3.6,07/15/20
Ardakān,IR,32.31,54.02,29.0,28,20,3.1,07/15/20
Batemans Bay,AU,-35.72,150.18,13.89,74,89,0.89,07/15/20
Arcelia,MX,18.28,-100.27,24.03,80,78,1.23,07/15/20
Mackenzie,CA,55.3,-123.17,12.0,100,90,2.6,07/15/20
Gallup,US,35.53,-108.74,25.0,22,1,3.6,07/15/20
Kargasok,RU,59.06,80.86,20.04,49,2,2.36,07/15/20
Winburg,ZA,-28.52,27.01,-4.9,95,0,2.76,07/15/20
Oussouye,SN,12.48,-16.55,26.34,82,100,4.36,07/15/20
Azovo,RU,54.7,73.02,26.0,39,0,2.0,07/15/20
Aras,ES,42.56,-2.36,12.0,76,20,4.6,07/15/20
Impfondo,CG,1.64,18.07,20.82,94,100,0.61,07/15/20
Arandis,NA,-22.42,14.97,14.8,32,0,13.33,07/15/20
Bac Lieu,VN,9.29,105.72,31.12,64,81,2.59,07/15/20
Alofi,NU,-19.06,-169.92,24.0,64,39,4.6,07/15/20
Irtyshskiy,RU,58.33,68.13,27.09,60,0,4.44,07/15/20
Izumo,JP,35.37,132.77,23.0,78,75,5.1,07/15/20
Stawell,AU,-37.05,142.77,12.29,62,0,1.18,07/15/20
Saint-Augustin,CA,51.23,-58.65,8.14,92,5,2.59,07/15/20
Yeppoon,AU,-23.13,150.73,23.0,27,0,3.6,07/15/20
Kamenka,RU,51.32,42.77,18.33,84,0,4.92,07/15/20
Harar,ET,9.31,42.13,15.98,88,100,3.26,07/15/20
Luís Correia,BR,-2.88,-41.67,24.18,82,1,3.26,07/15/20
Bereket,TM,39.24,55.52,32.29,38,8,8.33,07/15/20
Ves'yegonsk,RU,58.66,37.26,12.51,96,100,6.23,07/15/20
Salym,RU,60.06,71.48,25.68,61,34,4.78,07/15/20
Mattru,SL,7.62,-11.83,22.24,97,100,2.01,07/15/20
Hualmay,PE,-11.1,-77.61,15.71,87,48,3.51,07/15/20
Mossamedes,AO,-15.2,12.15,16.44,88,1,1.93,07/15/20
Pozo Colorado,PY,-23.49,-58.8,11.99,72,8,2.61,07/15/20
Umm Kaddadah,SD,13.6,26.69,28.17,59,20,6.69,07/15/20
Mahibadhoo,MV,3.78,72.97,29.1,72,100,3.45,07/15/20
Yerbogachën,RU,61.28,108.01,19.22,82,100,4.31,07/15/20
Nagato,JP,34.38,131.2,25.0,73,75,3.6,07/15/20
Guaporé,BR,-28.85,-51.89,2.78,90,0,0.46,07/15/20
Srostki,RU,52.42,85.7,22.88,76,39,2.94,07/15/20
Pingzhuang,CN,42.04,119.29,31.8,31,39,1.37,07/15/20
Vostok,RU,46.49,135.88,22.36,74,43,1.07,07/15/20
Sulangan,PH,11.14,123.72,29.58,67,20,1.52,07/15/20
Lake Havasu City,US,34.48,-114.32,38.0,12,1,3.1,07/15/20
Sinegor'ye,RU,62.08,150.48,11.21,80,100,4.27,07/15/20
Chicama,PE,-7.84,-79.15,17.06,85,73,2.59,07/15/20
Yulara,AU,-25.24,130.99,19.0,20,20,3.6,07/15/20
Madawaska,US,47.36,-68.33,13.0,76,1,2.6,07/15/20
Chota,PE,-6.55,-78.65,11.31,86,92,1.81,07/15/20
Santa Maria,BR,-29.68,-53.81,2.71,79,0,1.32,07/15/20
Pouébo,NC,-20.4,164.57,23.9,73,57,2.33,07/15/20
Pijijiapan,MX,15.7,-93.23,24.99,84,86,1.77,07/15/20
Coolum Beach,AU,-26.53,153.1,21.67,49,0,0.45,07/15/20
Nador,MA,35.17,-2.93,24.0,83,75,2.6,07/15/20
San Ramon,US,37.78,-121.98,18.0,68,1,4.6,07/15/20
Barra de Tecoanapa,MX,16.52,-98.75,26.63,86,78,1.97,07/15/20
Springdale,US,36.19,-94.13,27.22,65,1,2.6,07/15/20
Chapais,CA,49.78,-74.85,18.0,68,1,4.1,07/15/20
Show Low,US,34.25,-110.03,23.0,27,1,3.6,07/15/20
Imbituba,BR,-28.24,-48.67,11.0,81,75,1.0,07/15/20
Rørvik,NO,64.86,11.24,14.0,76,74,2.1,07/15/20
Marsabit,KE,2.33,37.99,16.08,91,75,7.97,07/15/20
Hong Gai,VN,20.96,107.09,33.0,66,20,4.6,07/15/20
Bernau bei Berlin,DE,52.68,13.59,17.78,78,100,3.09,07/15/20
Nanning,CN,22.82,108.32,34.0,56,20,3.0,07/15/20
Iqaluit,CA,63.75,-68.51,10.0,76,20,1.5,07/15/20
‘Āhuimanu,US,21.44,-157.84,29.0,62,40,5.1,07/15/20
Yumen,CN,40.28,97.2,28.41,18,89,4.46,07/15/20
Kapuskasing,CA,49.42,-82.43,21.0,68,90,4.1,07/15/20
Nikolskoye,RU,59.7,30.79,15.56,82,97,2.0,07/15/20
Esim,GH,4.87,-2.24,23.44,82,49,4.81,07/15/20
São João da Barra,BR,-21.64,-41.05,20.91,84,97,6.11,07/15/20
Abut,PH,17.35,121.6,32.13,63,23,2.47,07/15/20
Fukuechō,JP,32.69,128.84,23.0,83,75,3.1,07/15/20
Yashalta,RU,46.34,42.28,22.41,56,1,4.8,07/15/20
Qeshm,IR,26.96,56.27,33.0,75,75,3.1,07/15/20
La Plata,AR,-34.92,-57.95,7.22,55,0,1.74,07/15/20
Acapetahua,MX,15.28,-92.7,24.72,85,96,1.64,07/15/20
Bandarbeyla,SO,9.49,50.81,29.59,52,100,13.95,07/15/20
Tambacounda,SN,13.75,-13.76,27.0,78,5,4.1,07/15/20
Hokitika,NZ,-42.72,170.97,9.49,59,60,4.55,07/15/20
Borogontsy,RU,62.67,131.17,30.56,33,61,1.27,07/15/20
Magé,BR,-22.65,-43.04,19.0,88,90,3.1,07/15/20
Mala,PE,-12.66,-76.63,16.43,78,67,2.59,07/15/20
Grants,US,35.15,-107.85,25.0,25,1,4.1,07/15/20
Katsuura,JP,35.13,140.3,22.78,89,100,4.5,07/15/20
Blagoyevo,RU,63.37,47.92,14.48,85,80,1.76,07/15/20
Uyemskiy,RU,64.47,40.85,12.0,93,75,3.0,07/15/20
Coquimbo,CL,-29.95,-71.34,10.0,93,90,2.1,07/15/20
Biltine,TD,14.53,20.92,24.38,71,43,1.76,07/15/20
Nhulunbuy,AU,-12.23,136.77,28.0,54,20,7.2,07/15/20
Puerto del Rosario,ES,28.5,-13.86,24.0,64,7,7.2,07/15/20
Motema,SL,8.6,-11.03,20.67,99,100,1.28,07/15/20
Ribeira Grande,PT,38.52,-28.7,20.45,79,0,1.18,07/15/20
Nouadhibou,MR,20.93,-17.03,21.0,77,75,7.2,07/15/20
Vila,PT,42.03,-8.16,17.0,72,46,2.6,07/15/20
Eyl,SO,7.98,49.82,29.5,51,100,12.22,07/15/20
Talaya,RU,61.38,152.75,19.44,62,31,7.61,07/15/20
Liberia,LR,6.5,-9.5,20.25,96,100,1.27,07/15/20
Kumul,CN,42.8,93.45,32.85,12,0,2.91,07/15/20
Hong Kong,HK,22.29,114.16,34.44,56,43,5.36,07/15/20
Brae,GB,60.4,-1.35,10.0,93,84,1.0,07/15/20
Tutóia,BR,-2.76,-42.27,25.11,83,0,4.2,07/15/20
Sosnovo-Ozerskoye,RU,52.52,111.54,28.95,40,9,2.14,07/15/20
Egvekinot,RU,66.32,-179.17,9.24,84,100,1.54,07/15/20
Pitimbu,BR,-7.47,-34.81,23.27,84,7,4.42,07/15/20
Jalu,LY,29.03,21.55,24.43,57,0,4.54,07/15/20
Ambilobe,MG,-13.2,49.05,23.33,64,2,1.2,07/15/20
Mortka,RU,59.33,66.02,29.77,54,14,4.2,07/15/20
Verāval,IN,20.9,70.37,29.8,75,100,5.21,07/15/20
Cherkasskoye,RU,52.43,47.22,24.48,69,100,3.45,07/15/20
Binzhou,CN,37.37,118.02,36.67,41,0,0.76,07/15/20
Tautira,PF,-17.73,-149.15,26.0,83,75,2.1,07/15/20
College,US,64.86,-147.8,21.0,56,75,2.1,07/15/20
Malanje,AO,-9.54,16.34,11.38,43,5,2.45,07/15/20
Emerald,AU,-23.53,148.17,21.0,30,0,2.1,07/15/20
Namatanai,PG,-3.67,152.43,29.37,62,78,0.95,07/15/20
Folkestone,GB,51.08,1.18,14.44,90,98,2.24,07/15/20
Parfino,RU,57.97,31.65,14.63,62,100,5.21,07/15/20
Fare,PF,-16.7,-151.02,25.92,79,11,4.58,07/15/20
Pangody,RU,65.85,74.49,12.32,92,100,3.95,07/15/20
Jadu,LY,31.95,12.03,21.47,53,0,5.78,07/15/20
Olinda,BR,-8.01,-34.86,23.0,88,75,4.3,07/15/20
Innisfail,AU,-17.53,146.03,20.79,66,89,4.18,07/15/20
Lata,PT,40.16,-8.33,21.11,48,0,4.47,07/15/20
San Policarpo,PH,12.18,125.51,30.28,68,12,4.1,07/15/20
Vallenar,CL,-28.57,-70.76,14.08,58,0,0.18,07/15/20
Mananara,MG,-16.17,49.77,20.98,78,49,2.0,07/15/20
Bubaque,GW,11.28,-15.83,26.63,80,94,4.42,07/15/20
Atyrau,KZ,47.12,51.88,35.06,22,40,2.19,07/15/20
Krasnystaw,PL,50.98,23.17,15.0,93,15,3.1,07/15/20
Vila do Maio,CV,15.13,-23.22,26.0,78,75,4.1,07/15/20
Örnsköldsvik,SE,63.29,18.72,11.0,93,100,1.5,07/15/20
Vengerovo,RU,55.68,76.75,20.96,63,20,2.71,07/15/20
Acapulco de Juárez,MX,16.86,-99.89,27.03,81,40,1.1,07/15/20
Peleduy,RU,59.63,112.74,34.78,30,25,0.5,07/15/20
Mangan,IN,27.52,88.53,30.8,43,70,2.82,07/15/20
Summerside,CA,46.4,-63.79,13.89,89,99,0.45,07/15/20
Kirakira,SB,-10.45,161.92,27.78,79,96,4.57,07/15/20
Turmalina,BR,-17.29,-42.73,14.08,65,0,0.41,07/15/20
Birjand,IR,32.87,59.22,29.0,18,75,4.1,07/15/20
São Félix do Xingu,BR,-6.64,-51.99,20.68,66,0,0.72,07/15/20
Samaipata,BO,-18.15,-63.87,9.59,100,96,0.34,07/15/20
Port-Cartier,CA,50.03,-66.87,9.0,93,5,2.1,07/15/20
Lock Haven,US,41.14,-77.45,16.67,93,0,0.96,07/15/20
Huamachuco,PE,-7.8,-78.07,6.21,92,67,1.8,07/15/20
Port Hueneme,US,34.15,-119.2,17.0,87,1,5.7,07/15/20
Kavieng,PG,-2.57,150.8,29.42,62,100,1.6,07/15/20
Merauke,ID,-8.47,140.33,26.65,81,77,9.45,07/15/20
Hambantota,LK,6.12,81.12,29.0,94,40,4.6,07/15/20
Ryōtsu-minato,JP,38.08,138.43,23.0,94,75,2.1,07/15/20
Puerto Limón,CR,10.0,-83.03,25.85,83,98,2.78,07/15/20
Karuri,KE,-0.7,37.18,17.07,80,97,1.13,07/15/20
Komoro,JP,36.32,138.43,16.67,99,100,2.2,07/15/20
Haukipudas,FI,65.18,25.35,13.89,93,7,2.1,07/15/20
Loukhi,RU,66.08,33.04,11.17,90,93,0.99,07/15/20
Baracatan,PH,6.97,125.42,26.27,81,12,1.45,07/15/20
Lastoursville,GA,-0.81,12.73,20.88,94,91,0.67,07/15/20
Cové,BJ,7.22,2.34,20.96,95,100,1.54,07/15/20
Beyneu,KZ,45.32,55.2,35.83,16,0,4.56,07/15/20
Lukulu,ZM,-14.37,23.24,7.57,51,0,2.7,07/15/20
Constitución,CL,-35.33,-72.42,11.24,72,0,2.07,07/15/20
Trabzon Province,TR,40.92,39.83,23.0,73,75,2.1,07/15/20
Walvis Bay,NA,-22.96,14.51,18.0,18,0,1.5,07/15/20
Antofagasta,CL,-23.65,-70.4,11.0,93,0,3.1,07/15/20
Ust-Kuyga,RU,70.02,135.6,18.02,36,16,6.55,07/15/20
Daru,PG,-9.08,143.21,25.57,88,72,8.01,07/15/20
Riyadh,SA,24.69,46.72,31.0,22,0,3.1,07/15/20
Emba,KZ,48.83,58.14,34.19,16,0,6.34,07/15/20
Morgan City,US,29.7,-91.21,29.0,100,1,1.84,07/15/20
Eufaula,US,31.89,-85.15,26.67,86,37,1.6,07/15/20
Grindavik,IS,63.84,-22.43,10.0,100,90,2.1,07/15/20
Vanderhoof,CA,54.02,-124.02,13.72,73,99,3.43,07/15/20
Cabinda,AO,-5.55,12.2,21.02,87,33,0.81,07/15/20
Norfolk,US,42.17,-71.25,20.0,77,90,2.1,07/15/20
Sarangani,PH,5.4,125.46,29.21,70,3,4.17,07/15/20
Rancho Palos Verdes,US,33.74,-118.39,18.33,88,2,1.34,07/15/20
Trairi,BR,-3.28,-39.27,24.37,84,17,3.61,07/15/20
Karratha,AU,-20.74,116.85,27.01,25,81,6.99,07/15/20
Liberal,US,37.04,-100.92,23.0,94,90,6.2,07/15/20
Armidale,AU,-30.52,151.65,7.78,67,70,1.79,07/15/20
Esil,KZ,51.96,66.4,28.55,48,88,3.55,07/15/20
Moindou,NC,-21.69,165.68,24.0,73,75,4.6,07/15/20
Moussoro,TD,13.64,16.49,27.27,66,100,3.47,07/15/20
Zinder,NE,13.81,8.99,24.0,88,100,4.1,07/15/20
Port Hardy,CA,50.7,-127.42,15.0,87,75,1.5,07/15/20
Bilibino,RU,68.05,166.44,17.14,59,96,0.48,07/15/20
Salalah,OM,17.02,54.09,26.0,100,90,2.6,07/15/20
Sobolevo,RU,54.43,31.9,10.26,93,100,9.97,07/15/20
Arrondissement de Libourne,FR,44.92,-0.25,18.33,77,90,2.6,07/15/20
Kearney,US,40.7,-99.08,20.0,82,90,4.6,07/15/20
Aksarka,RU,66.56,67.8,12.56,94,100,4.14,07/15/20
Mēga,ET,4.05,38.3,13.91,100,99,6.85,07/15/20
Marathon,US,44.9,-89.77,21.0,94,90,3.1,07/15/20
Lagos,NG,6.58,3.75,24.0,94,20,2.6,07/15/20
Bellavista,PE,-7.06,-76.59,19.97,96,73,0.57,07/15/20
Doha,QA,25.29,51.53,40.0,37,0,2.1,07/15/20
Ixtapa,MX,20.7,-105.2,29.0,83,75,1.5,07/15/20
Maceió,BR,-9.67,-35.74,20.0,100,9,2.1,07/15/20
Thinadhoo,MV,0.53,72.93,29.03,69,97,2.17,07/15/20
Amahai,ID,-3.33,128.92,28.33,93,66,0.45,07/15/20
Kushiro,JP,42.98,144.37,16.0,77,75,3.6,07/15/20
Brownsville,US,25.9,-97.5,28.33,78,1,6.2,07/15/20
Kruisfontein,ZA,-34.0,24.73,4.88,75,0,3.29,07/15/20
Madīnat Sittah Uktūbar,EG,29.82,31.05,25.0,83,40,2.1,07/15/20
Diu,IN,20.71,70.98,30.1,73,100,5.72,07/15/20
Nantucket,US,41.28,-70.1,19.44,88,90,5.7,07/15/20
